{"type":"FeatureCollection","features":[{"type":"Feature","properties":{"Name":"Lincoln  Medical &  Mental Health Center","Borough":"Bronx","Phone":"718-579-5000","Address":"234 149th Street\nBronx, NY 10451\n(40.817688484049, -73.924200271483)","Latitude":"40.81713","Longitude":"-73.924396","Year":"1839","Hour":"0","Day":"Mon","Casualty":"1","Geometry":"Point"},"geometry":{"type":"Point","coordinates":[-73.924396,40.81713]}},{"type":"Feature","properties":{"Name":"Lincoln Medical and Mental Health Center","Borough":"Bronx","Phone":"718-579-5000","Address":"234 149th Street\nBronx, NY 10451\n(40.817688484049, -73.924200271483)","Latitude":"40.817114","Longitude":"-73.924417","Year":"1839","Hour":"0","Day":"Mon","Casualty":"1","Geometry":"Point"},"geometry":{"type":"Point","coordinates":[-73.924417,40.817114]}},{"type":"Feature","properties":{"Name":"Metropolitan Hospital Center","Borough":"Manhattan","Phone":"212-423-6262","Address":"1901 First Avenue\nNew York, NY 10029\n(40.784557024105, -73.943795653643)","Postcode":"10029","Latitude":"40.784557","Longitude":"-73.94378","Community Board":"11","Council District":"8","Census Tract":"15,602","BIN":"1083929","BBL":"1016690001","NTA":"East Harlem South                                                          ","Year":"1875","Hour":"4","Day":"Tue","Casualty":"1","Geometry":"Point"},"geometry":{"type":"Point","coordinates":[-73.94378,40.784557]}},{"type":"Feature","properties":{"Name":"Metropolitan Hospital Center","Borough":"Manhattan","Phone":"212-423-6262","Address":"1901 First Avenue\nNew York, NY 10029\n(40.784557024105, -73.943795653643)","Postcode":"10029","Latitude":"40.784557","Longitude":"-73.94378","Community Board":"11","Council District":"8","Census Tract":"15,602","BIN":"1083929","BBL":"1016690001","NTA":"East Harlem South                                                          ","Year":"1875","Hour":"4","Day":"Tue","Casualty":"1","Geometry":"Point"},"geometry":{"type":"Point","coordinates":[-73.94378,40.784557]}},{"type":"Feature","properties":{"Name":"Harlem Hospital Center","Borough":"Manhattan","Phone":"212-939-1000","Address":"506 Lenox Avenue\nNew York, NY 10037\n(40.814275217502, -73.940602831291)","Postcode":"10037","Latitude":"40.814358","Longitude":"-73.940659","Community Board":"10","Council District":"9","Census Tract":"212","BIN":"1053899","BBL":"1017330001","NTA":"Central Harlem North-Polo Grounds                                          ","Year":"1887","Hour":"5","Day":"Tue","Casualty":"2","Geometry":"Point"},"geometry":{"type":"Point","coordinates":[-73.940659,40.814358]}},{"type":"Feature","properties":{"Name":"Harlem Hospital Center","Borough":"Manhattan","Phone":"212-939-1000","Address":"506 Lenox Avenue\nNew York, NY 10037\n(40.814275217502, -73.940602831291)","Postcode":"10037","Latitude":"40.814358","Longitude":"-73.940659","Community Board":"10","Council District":"9","Census Tract":"212","BIN":"1053899","BBL":"1017330001","NTA":"Central Harlem North-Polo Grounds                                          ","Year":"1887","Hour":"5","Day":"Tue","Casualty":"2","Geometry":"Point"},"geometry":{"type":"Point","coordinates":[-73.940659,40.814358]}},{"type":"Feature","properties":{"Name":"Sydenham Health Center","Borough":"Manhattan","Phone":"212-932-6500","Address":"215 125th Street\nNew York, NY 10027\n(40.809338651192, -73.949197484073)","Postcode":"10026","Latitude":"40.806362","Longitude":"-73.95381","Year":"1892","Hour":"6","Day":"Tue","Casualty":"2","Geometry":"Point"},"geometry":{"type":"Point","coordinates":[-73.95381,40.806362]}},{"type":"Feature","properties":{"Name":"Jacobi Medical Center","Borough":"Bronx","Phone":"718-918-5000","Address":"1400 Pelham Parkway\nBronx, NY 10461\n(40.857397104611, -73.846571204087)","Postcode":"10461","Latitude":"40.857427","Longitude":"-73.847079","Community Board":"11","Council District":"13","Census Tract":"296","BIN":"2097550","BBL":"2042050001","NTA":"Pelham Parkway                                                             ","Year":"1901","Hour":"7","Day":"Tue","Casualty":"2","Geometry":"Point"},"geometry":{"type":"Point","coordinates":[-73.847079,40.857427]}},{"type":"Feature","properties":{"Name":"Jacobi Medical Center","Borough":"Bronx","Phone":"718-918-5000","Address":"1400 Pelham Parkway\nBronx, NY 10461\n(40.857397104611, -73.846571204087)","Postcode":"10461","Latitude":"40.857427","Longitude":"-73.847079","Community Board":"11","Council District":"13","Census Tract":"296","BIN":"2097550","BBL":"2042050001","NTA":"Pelham Parkway                                                             ","Year":"1901","Hour":"7","Day":"Tue","Casualty":"2","Geometry":"Point"},"geometry":{"type":"Point","coordinates":[-73.847079,40.857427]}},{"type":"Feature","properties":{"Name":"North Central Bronx Hospital","Borough":"Bronx","Phone":"718-519-5000","Address":"3424 Kossuth Avenue\nBronx, NY 10467\n(40.880463372456, -73.881592877502)","Postcode":"10467","Latitude":"40.880462","Longitude":"-73.88164","Community Board":"7","Council District":"11","Census Tract":"421","BIN":"2017787","BBL":"2033270200","NTA":"Norwood                                                                    ","Year":"1976","Hour":"15","Day":"Fri","Casualty":"4","Geometry":"Point"},"geometry":{"type":"Point","coordinates":[-73.88164,40.880462]}},{"type":"Feature","properties":{"Name":"North Central Bronx Hospital","Borough":"Bronx","Phone":"718-519-5000","Address":"3424 Kossuth Avenue\nBronx, NY 10467\n(40.880463372456, -73.881592877502)","Postcode":"10467","Latitude":"40.880462","Longitude":"-73.88164","Community Board":"7","Council District":"11","Census Tract":"421","BIN":"2017787","BBL":"2033270200","NTA":"Norwood                                                                    ","Year":"1976","Hour":"15","Day":"Fri","Casualty":"4","Geometry":"Point"},"geometry":{"type":"Point","coordinates":[-73.88164,40.880462]}},{"type":"Feature","properties":{"Name":"Morrisania Diagnostic & Treatment Center","Borough":"Bronx","Phone":"718-960-2777","Address":"1225 Gerard Avenue\nBronx, NY 10452\n(40.835906387949, -73.920034037019)","Postcode":"10452","Latitude":"40.835957","Longitude":"-73.919986","Community Board":"4","Council District":"16","Census Tract":"197","BIN":"2003015","BBL":"2024890060","NTA":"West Concourse                                                             ","Year":"1979","Hour":"15","Day":"Fri","Casualty":"4","Geometry":"Point"},"geometry":{"type":"Point","coordinates":[-73.919986,40.835957]}},{"type":"Feature","properties":{"Name":"Morrisania Diagnostic & Treatment Center","Borough":"Bronx","Phone":"718-960-2777","Address":"1225 Gerard Avenue\nBronx, NY 10452\n(40.835906387949, -73.920034037019)","Postcode":"10452","Latitude":"40.835957","Longitude":"-73.919986","Community Board":"4","Council District":"16","Census Tract":"197","BIN":"2003015","BBL":"2024890060","NTA":"West Concourse                                                             ","Year":"1979","Hour":"15","Day":"Fri","Casualty":"4","Geometry":"Point"},"geometry":{"type":"Point","coordinates":[-73.919986,40.835957]}},{"type":"Feature","properties":{"Name":"Segundo Ruiz Belvis Diagnostic & Treatment Center","Borough":"Bronx","Phone":"718-579-4000","Address":"545 142nd Street\nBronx, NY 10454\n(40.810121864043, -73.916811846348)","Latitude":"40.810312","Longitude":"-73.915729","Year":"1990","Hour":"20","Day":"Sat","Casualty":"5","Geometry":"Point"},"geometry":{"type":"Point","coordinates":[-73.915729,40.810312]}},{"type":"Feature","properties":{"Name":"Renaissance Health Care Network Diagnostic & Treatment Center","Borough":"Manhattan","Phone":"212-932-6500","Address":"215 125th Street\nNew York, NY 10027\n(40.809338651192, -73.949197484073)","Latitude":"40.796264","Longitude":"-73.96793","Year":"1990","Hour":"20","Day":"Sat","Casualty":"5","Geometry":"Point"},"geometry":{"type":"Point","coordinates":[-73.96793,40.796264]}},{"type":"Feature","properties":{"Name":"Grant Houses Clinic","Borough":"Manhattan","Phone":"212-678-8420","Address":"3170 Broadway\nNew York, NY 10027\n(40.815255660488, -73.958430492697)","Postcode":"10027","Latitude":"40.814794","Longitude":"-73.958928","Community Board":"9","Council District":"7","Census Tract":"211","BIN":"1084118","BBL":"1019800001","NTA":"Morningside Heights                                                        ","Year":"1990","Hour":"20","Day":"Sat","Casualty":"5","Geometry":"Point"},"geometry":{"type":"Point","coordinates":[-73.958928,40.814794]}},{"type":"Feature","properties":{"Name":"Drew Hamilton Houses Health Center","Borough":"Manhattan","Cross Streets":"between W. 143rd St. & W. 144th St.","Phone":"212-939-8950","Address":"2698 Eighth Avenue\nNew York, NY 10030\n(40.822139979421, -73.942389748859)","Postcode":"10030","Latitude":"40.821706","Longitude":"-73.94273","Community Board":"10","Council District":"9","Census Tract":"232","BIN":"1060431","BBL":"1020290001","NTA":"Central Harlem North-Polo Grounds                                          ","Year":"1990","Hour":"20","Day":"Sat","Casualty":"5","Geometry":"Point"},"geometry":{"type":"Point","coordinates":[-73.94273,40.821706]}},{"type":"Feature","properties":{"Name":"La Clinica Del Barrio","Borough":"Manhattan","Phone":"212-410-7940","Address":"413 120th Street\nNew York, NY 10035\n(40.798205044469, -73.932667945174)","Latitude":"40.798559","Longitude":"-73.932529","Year":"1997","Hour":"21","Day":"Sun","Casualty":"5","Geometry":"Point"},"geometry":{"type":"Point","coordinates":[-73.932529,40.798559]}},{"type":"Feature","properties":{"Name":"Melrose Houses Child Health Clinic","Borough":"Bronx","Cross Streets":"between Morris Ave. & Courtlandt Ave.","Phone":"718-292-2820","Address":"348 156th Street\nBronx, NY 10451\n(40.821301194646, -73.917709787212)","Postcode":"10456","Latitude":"40.821316","Longitude":"-73.918009","Year":"1998","Hour":"22","Day":"Sun","Casualty":"5","Geometry":"Point"},"geometry":{"type":"Point","coordinates":[-73.918009,40.821316]}},{"type":"Feature","properties":{"Name":"Daniel Webster Houses Child Health Clinic","Borough":"Bronx","Cross Streets":"corner of Webster Ave.","Phone":"718-538-2147","Address":"401 168th Street\nBronx, NY 10456\n(40.832279848967, -73.909534601874)","Postcode":"10456","Latitude":"40.832587","Longitude":"-73.909126","Year":"1998","Hour":"22","Day":"Sun","Casualty":"5","Geometry":"Point"},"geometry":{"type":"Point","coordinates":[-73.909126,40.832587]}},{"type":"Feature","properties":{"Name":"Health Center at Tremont","Borough":"Bronx","Cross Streets":"corner of 175th St.","Phone":"718-918-8700","Address":"1826 Arthur Avenue\nBronx, NY 10457\n(40.844000208275, -73.894548724404)","Postcode":"10457","Latitude":"40.844083","Longitude":"-73.894482","Community Board":"6","Council District":"17","Census Tract":"36,901","BIN":"2009891","BBL":"2029450018","NTA":"East Tremont                                                               ","Year":"1998","Hour":"22","Day":"Sun","Casualty":"5","Geometry":"Point"},"geometry":{"type":"Point","coordinates":[-73.894482,40.844083]}},{"type":"Feature","properties":{"Name":"Gunhill Health Center","Borough":"Bronx","Cross Streets":"between Paulding Ave. & Hone Ave.","Phone":"718-918-8850","Address":"1012 Gunhill Road\nBronx, NY 10469\n(40.874626006887, -73.857887416826)","Postcode":"10469","Latitude":"40.874636","Longitude":"-73.85784","Community Board":"12","Council District":"12","Census Tract":"370","BIN":"2057204","BBL":"2046370036","NTA":"Williamsbridge-Olinville                                                   ","Year":"1999","Hour":"23","Day":"Sun","Casualty":"5","Geometry":"Point"},"geometry":{"type":"Point","coordinates":[-73.85784,40.874636]}},{"type":"Feature","properties":{"Name":"Manhattanville/St. Nicholas Houses Child Health Care Center","Borough":"Manhattan","Cross Streets":"between A.C. Powell & F. Douglas Blvds.","Phone":"212-865-1300","Address":"281 127th Street\nNew York, NY 10027\n(40.811276995393, -73.949657755163)","Latitude":"40.812482","Longitude":"-73.949804","Geometry":"Point"},"geometry":{"type":"Point","coordinates":[-73.949804,40.812482]}}]}