{"type":"FeatureCollection","features":[{"type":"Feature","properties":{"Name":"Lincoln  Medical &  Mental Health Center","Borough":"Bronx","Phone":"718-579-5000","Address":"234 149th Street\nBronx, NY 10451\n(40.817688484049, -73.924200271483)","Latitude":"40.81713","Longitude":"-73.924396","Year":"1839","Hour":"0","Day":"Mon","Casualty":"1","Geometry":"Point"},"geometry":{"type":"Point","coordinates":[-73.924396,40.81713]}},{"type":"Feature","properties":{"Name":"Lincoln Medical and Mental Health Center","Borough":"Bronx","Phone":"718-579-5000","Address":"234 149th Street\nBronx, NY 10451\n(40.817688484049, -73.924200271483)","Latitude":"40.817114","Longitude":"-73.924417","Year":"1839","Hour":"0","Day":"Mon","Casualty":"1","Geometry":"Point"},"geometry":{"type":"Point","coordinates":[-73.924417,40.817114]}},{"type":"Feature","properties":{"Name":"Metropolitan Hospital Center","Borough":"Manhattan","Phone":"212-423-6262","Address":"1901 First Avenue\nNew York, NY 10029\n(40.784557024105, -73.943795653643)","Postcode":"10029","Latitude":"40.784557","Longitude":"-73.94378","Community Board":"11","Council District":"8","Census Tract":"15,602","BIN":"1083929","BBL":"1016690001","NTA":"East Harlem South                                                          ","Year":"1875","Hour":"4","Day":"Tue","Casualty":"1","Geometry":"Point"},"geometry":{"type":"Point","coordinates":[-73.94378,40.784557]}},{"type":"Feature","properties":{"Name":"Metropolitan Hospital Center","Borough":"Manhattan","Phone":"212-423-6262","Address":"1901 First Avenue\nNew York, NY 10029\n(40.784557024105, -73.943795653643)","Postcode":"10029","Latitude":"40.784557","Longitude":"-73.94378","Community Board":"11","Council District":"8","Census Tract":"15,602","BIN":"1083929","BBL":"1016690001","NTA":"East Harlem South                                                          ","Year":"1875","Hour":"4","Day":"Tue","Casualty":"1","Geometry":"Point"},"geometry":{"type":"Point","coordinates":[-73.94378,40.784557]}},{"type":"Feature","properties":{"Name":"Harlem Hospital Center","Borough":"Manhattan","Phone":"212-939-1000","Address":"506 Lenox Avenue\nNew York, NY 10037\n(40.814275217502, -73.940602831291)","Postcode":"10037","Latitude":"40.814358","Longitude":"-73.940659","Community Board":"10","Council District":"9","Census Tract":"212","BIN":"1053899","BBL":"1017330001","NTA":"Central Harlem North-Polo Grounds                                          ","Year":"1887","Hour":"5","Day":"Tue","Casualty":"2","Geometry":"Point"},"geometry":{"type":"Point","coordinates":[-73.940659,40.814358]}},{"type":"Feature","properties":{"Name":"Harlem Hospital Center","Borough":"Manhattan","Phone":"212-939-1000","Address":"506 Lenox Avenue\nNew York, NY 10037\n(40.814275217502, -73.940602831291)","Postcode":"10037","Latitude":"40.814358","Longitude":"-73.940659","Community Board":"10","Council District":"9","Census Tract":"212","BIN":"1053899","BBL":"1017330001","NTA":"Central Harlem North-Polo Grounds                                          ","Year":"1887","Hour":"5","Day":"Tue","Casualty":"2","Geometry":"Point"},"geometry":{"type":"Point","coordinates":[-73.940659,40.814358]}},{"type":"Feature","properties":{"Name":"Sydenham Health Center","Borough":"Manhattan","Phone":"212-932-6500","Address":"215 125th Street\nNew York, NY 10027\n(40.809338651192, -73.949197484073)","Postcode":"10026","Latitude":"40.806362","Longitude":"-73.95381","Year":"1892","Hour":"6","Day":"Tue","Casualty":"2","Geometry":"Point"},"geometry":{"type":"Point","coordinates":[-73.95381,40.806362]}},{"type":"Feature","properties":{"Name":"Jacobi Medical Center","Borough":"Bronx","Phone":"718-918-5000","Address":"1400 Pelham Parkway\nBronx, NY 10461\n(40.857397104611, -73.846571204087)","Postcode":"10461","Latitude":"40.857427","Longitude":"-73.847079","Community Board":"11","Council District":"13","Census Tract":"296","BIN":"2097550","BBL":"2042050001","NTA":"Pelham Parkway                                                             ","Year":"1901","Hour":"7","Day":"Tue","Casualty":"2","Geometry":"Point"},"geometry":{"type":"Point","coordinates":[-73.847079,40.857427]}},{"type":"Feature","properties":{"Name":"Jacobi Medical Center","Borough":"Bronx","Phone":"718-918-5000","Address":"1400 Pelham Parkway\nBronx, NY 10461\n(40.857397104611, -73.846571204087)","Postcode":"10461","Latitude":"40.857427","Longitude":"-73.847079","Community Board":"11","Council District":"13","Census Tract":"296","BIN":"2097550","BBL":"2042050001","NTA":"Pelham Parkway                                                             ","Year":"1901","Hour":"7","Day":"Tue","Casualty":"2","Geometry":"Point"},"geometry":{"type":"Point","coordinates":[-73.847079,40.857427]}}]}